{
  "Rennes": [
    {
      "category": "Sport",
      "price": 12.5,
      "name": "Salle de sport Rennes",
      "address": "10 Rue du Parc, Rennes",
      "lat": "48.08798165",
      "lon": "-1.6154534700343328",
      "days": [
        false,
        true,
        true,
        true,
        false,
        true,
        false
      ]
    },
    {
      "category": "Music",
      "price": 25,
      "name": "Concert de jazz",
      "address": "Le Liberté, Rennes",
      "lat": "48.10690725",
      "lon": "-1.6768673810895989",
      "days": [
        false,
        false,
        true,
        false,
        true,
        false,
        false
      ]
    }
  ],
  "Nantes": [
    {
      "category": "Sport",
      "price": 15,
      "name": "Football au Stade de la Beaujoire",
      "address": "Boulevard de la Beaujoire, Nantes",
      "lat": "47.2589254",
      "lon": "-1.5252064",
      "days": [
        true,
        true,
        false,
        false,
        true,
        false,
        false
      ]
    },
    {
      "category": "Cinema",
      "price": 10,
      "name": "Film au Katorza",
      "address": "5 Rue des Carmes, Nantes",
      "lat": "47.2159108",
      "lon": "-1.5551486",
      "days": [
        false,
        true,
        true,
        true,
        false,
        true,
        true
      ]
    },
    {
      "category": "Music",
      "price": 20,
      "name": "Concert de musique classique",
      "address": "Salle Paul-Fort, Nantes",
      "lat": "47.2209211",
      "lon": "-1.5582786",
      "days": [
        true,
        false,
        true,
        false,
        true,
        true,
        true
      ]
    },
    {
      "category": "Culture",
      "price": 5,
      "name": "Visite du Château des Ducs de Bretagne",
      "address": "4 Place Marc Elder, Nantes",
      "lat": "47.2161171",
      "lon": "-1.5493126932545644",
      "days": [
        false,
        true,
        true,
        true,
        false,
        true,
        false
      ]
    }
  ],
  "Paris": [
    {
      "category": "Sport",
      "price": 50,
      "name": "Cours de yoga au Jardin des Tuileries",
      "address": "Jardin des Tuileries, Paris",
      "lat": "48.863656399999996",
      "lon": "2.3268475947086094",
      "days": [
        true,
        true,
        true,
        false,
        true,
        false,
        true
      ]
    },
    {
      "category": "Music",
      "price": 60,
      "name": "Concert au Zénith",
      "address": "211 Avenue Jean Jaurès, Paris",
      "lat": "48.89420775",
      "lon": "2.3931778180311785",
      "days": [
        false,
        true,
        true,
        true,
        true,
        true,
        false
      ]
    },
    {
      "category": "Cinema",
      "price": 15,
      "name": "Film au Cinéma du Panthéon",
      "address": "13 Rue Victor Cousin, Paris",
      "lat": "48.847466999999995",
      "lon": "2.342463591974564",
      "days": [
        true,
        false,
        true,
        true,
        true,
        false,
        false
      ]
    },
    {
      "category": "Culture",
      "price": 12,
      "name": "Visite guidée du Louvre",
      "address": "Rue de Rivoli, Paris",
      "lat": "48.857491",
      "lon": "2.351447",
      "days": [
        false,
        true,
        true,
        true,
        false,
        true,
        false
      ]
    },
    {
      "category": "Culture",
      "price": 8,
      "name": "Balade sur le Montmartre",
      "address": "Place du Tertre, Paris",
      "lat": "48.886533650000004",
      "lon": "2.340806684865175",
      "days": [
        true,
        true,
        true,
        false,
        true,
        false,
        false
      ]
    }
  ],
  "Bordeaux": [
    {
      "category": "Sport",
      "price": 18,
      "name": "Match de rugby au Stade de la Merco",
      "address": "1 Avenue du Stade, Bordeaux",
      "lat": "44.788475",
      "lon": "-0.6793368214285693",
      "days": [
        false,
        true,
        true,
        true,
        false,
        false,
        false
      ]
    },
    {
      "category": "Culture",
      "price": 6,
      "name": "Visite du Musée d'Art Contemporain",
      "address": "7 Rue Ferrère, Bordeaux",
      "lat": "44.8482377",
      "lon": "-0.5719827",
      "days": [
        true,
        false,
        true,
        true,
        true,
        true,
        true
      ]
    },
    {
      "category": "Music",
      "price": 15,
      "name": "Concert de rock à l'I.Boat",
      "address": "Port de la Lune, Bordeaux",
      "lat": "44.82750725",
      "lon": "-0.5523027391013711",
      "days": [
        false,
        true,
        true,
        true,
        true,
        true,
        false
      ]
    }
  ],
  "Toulouse": [
    {
      "category": "Sport",
      "price": 20,
      "name": "Escalade au Climb Up",
      "address": "10 Avenue des États-Unis, Toulouse",
      "lat": "43.627423",
      "lon": "1.4336099",
      "days": [
        true,
        true,
        true,
        false,
        true,
        true,
        false
      ]
    },
    {
      "category": "Music",
      "price": 18,
      "name": "Concert de musique indie",
      "address": "Le Bikini, Toulouse",
      "lat": "43.5479483",
      "lon": "1.4856779",
      "days": [
        true,
        true,
        true,
        true,
        false,
        false,
        false
      ]
    },
    {
      "category": "Culture",
      "price": 10,
      "name": "Visite du Capitole de Toulouse",
      "address": "Place du Capitole, Toulouse",
      "lat": "43.60439865",
      "lon": "1.443351576181684",
      "days": [
        true,
        false,
        true,
        false,
        true,
        false,
        false
      ]
    },
    {
      "category": "Sport",
      "price": 15,
      "name": "Tennis au Tennis Club Toulouse",
      "address": "16 Rue de la Pomme, Toulouse",
      "lat": "43.6023983",
      "lon": "1.4465688",
      "days": [
        false,
        true,
        true,
        true,
        false,
        true,
        true
      ]
    },
    {
      "category": "Sport",
      "price": 30,
      "name": "Kayak sur la Garonne",
      "address": "Bord de la Garonne, Toulouse",
      "lat": "43.4907786",
      "lon": "1.897549",
      "days": [
        true,
        true,
        false,
        false,
        true,
        true,
        true
      ]
    },
    {
      "category": "Cinema",
      "price": 12,
      "name": "Projection en plein air",
      "address": "Place du Capitole, Toulouse",
      "lat": "43.60439865",
      "lon": "1.443351576181684",
      "days": [
        false,
        true,
        true,
        true,
        true,
        false,
        true
      ]
    },
    {
      "category": "Culture",
      "price": 5,
      "name": "Visite du musée des Augustins",
      "address": "21 Rue de Metz, Toulouse",
      "lat": "43.6005633",
      "lon": "1.4458914",
      "days": [
        true,
        false,
        true,
        false,
        true,
        true,
        true
      ]
    }
  ]
}